,City,Country,Latitude,Longitude,Max Temperature,Humidity,Cloudiness,Wind Speed
0,Sri Aman,MY,1.2376,111.4621,77.09,94,98,2.3
1,Kabalo,CD,-6.05,26.9167,77.67,32,16,3.96
2,Cape Town,ZA,-33.9258,18.4232,57.11,88,75,12.66
3,Rikitea,PF,-23.1203,-134.9692,74.07,79,99,15.64
4,Berlevåg,NO,70.8578,29.0864,51.6,81,20,11.5
5,Norman Wells,CA,65.282,-126.8329,71.64,46,75,6.91
6,Asău,RO,46.4333,26.4,65.32,98,95,2.35
7,Spirit River,CA,55.7833,-118.8361,75.63,35,30,8.05
8,Tilichiki,RU,60.4667,166.1,54.7,83,100,15.43
9,Narsaq,GL,60.9167,-46.05,45.57,77,29,3.36
10,Albany,US,42.6001,-73.9662,81.36,60,39,9.55
11,Atuona,PF,-9.8,-139.0333,77.27,70,5,19.39
12,Ţahţā,EG,26.7693,31.5021,88.97,31,1,9.64
13,Hong Kong,HK,22.2855,114.1577,82.45,91,100,18.01
14,Fayaoué,NC,-20.65,166.5333,70.92,57,99,12.21
15,Moose Factory,CA,51.2585,-80.6094,80.6,41,0,25.32
16,Kapaa,US,22.0752,-159.319,84.47,71,40,11.5
17,Dikson,RU,73.5069,80.5464,40.14,93,100,19.37
18,Vanimo,PG,-2.6741,141.3028,79.18,80,100,5.23
19,Mataura,NZ,-46.1927,168.8643,37.47,67,9,3.11
20,Lompoc,US,34.6391,-120.4579,87.01,60,0,16.11
21,Ribeira Grande,PT,38.5167,-28.7,74.1,76,17,1.68
22,Jamestown,US,42.097,-79.2353,71.19,59,16,4.0
23,Libreville,GA,0.3925,9.4537,75.97,84,52,7.58
24,Longyearbyen,SJ,78.2186,15.6401,44.44,87,75,5.75
25,Hobart,AU,-42.8794,147.3294,40.05,87,20,6.91
26,Bonavista,CA,48.6499,-53.1147,54.93,92,100,19.28
27,Vila Franca do Campo,PT,37.7167,-25.4333,73.2,79,27,5.06
28,Qaqortoq,GL,60.7167,-46.0333,43.29,85,12,4.54
29,Jinchang,CN,38.4953,102.1739,68.95,87,67,0.87
30,Chulumani,BO,-16.4096,-67.5263,61.02,99,96,3.09
31,Ushuaia,AR,-54.8,-68.3,35.26,80,0,1.14
32,Butaritari,KI,3.0707,172.7902,81.5,77,55,14.12
33,Mossamedes,AO,-15.1961,12.1522,63.55,86,71,2.21
34,Ambon City,ID,-3.6954,128.1814,77.23,15,20,1.14
35,Aurangabad,IN,19.8833,75.3333,72.25,94,100,13.35
36,Rucheng,CN,32.3883,120.5553,83.86,78,100,3.94
37,Saskylakh,RU,71.9167,114.0833,54.55,82,97,6.49
38,São Félix do Xingu,BR,-6.6447,-51.995,83.77,33,45,0.85
39,Cabo San Lucas,MX,22.8909,-109.9124,91.62,69,95,12.19
40,Chui,UY,-33.6971,-53.4616,47.57,84,4,7.63
41,Awjilah,LY,29.1081,21.2869,81.5,57,8,11.9
42,Puerto Baquerizo Moreno,EC,-0.9,-89.6,72.59,73,75,6.91
43,Kuzhithurai,IN,8.3167,77.1833,78.48,93,94,9.42
44,Hilo,US,19.7297,-155.09,91.27,80,75,8.99
45,Puerto Ayora,EC,-0.7393,-90.3518,75.16,85,89,5.01
46,Port-Cartier,CA,50.0334,-66.8654,66.42,61,0,4.76
47,George Town,MY,5.4112,100.3354,80.89,91,20,5.01
48,Nikolskoye,RU,59.7035,30.7861,55.87,79,25,1.68
49,Tuktoyaktuk,CA,69.4541,-133.0374,57.2,51,75,24.16
50,Vaini,TO,-21.2,-175.2,80.76,89,75,12.66
51,Souillac,MU,-20.5167,57.5167,68.38,73,75,10.36
52,Hermanus,ZA,-34.4187,19.2345,56.26,71,79,12.59
53,Punta Arenas,CL,-53.15,-70.9167,42.91,87,75,6.91
54,Honningsvåg,NO,70.9821,25.9704,53.35,76,20,13.8
55,Naze,JP,28.3667,129.4833,79.72,72,65,3.78
56,Cedar City,US,37.6775,-113.0619,86.97,30,75,6.2
57,Calama,CL,-22.4667,-68.9333,68.49,5,0,16.11
58,Mastung,PK,29.7994,66.845,75.7,70,56,4.25
59,Washougal,US,45.5826,-122.3534,92.34,57,0,5.75
60,Ōdate,JP,40.2686,140.5683,70.5,99,100,0.49
61,Ilulissat,GL,69.2167,-51.1,34.75,94,100,9.66
62,Mahébourg,MU,-20.4081,57.7,68.29,73,75,10.36
63,Busselton,AU,-33.65,115.3333,51.82,66,97,9.44
64,Ahipara,NZ,-35.1667,173.1667,57.36,57,4,3.51
65,Hofn,IS,64.2539,-15.2082,51.89,95,100,25.93
66,Champerico,GT,14.3,-91.9167,84.74,87,100,11.14
67,Bethel,US,41.3712,-73.414,91.27,67,60,1.99
68,Tucumã,BR,-0.1833,-50.05,78.49,84,9,8.05
69,Dingle,PH,10.9995,122.6711,76.41,91,86,0.67
70,Palmer,US,42.1584,-72.3287,89.15,48,40,10.36
71,Broome,US,42.2506,-75.833,77.61,64,75,9.22
72,Nanortalik,GL,60.1432,-45.2371,42.69,89,63,8.99
73,Arrondissement de Cahors,FR,44.4167,1.3333,70.18,34,21,5.93
74,Kunming,CN,25.0389,102.7183,57.13,100,100,4.47
75,Los Llanos de Aridane,ES,28.6585,-17.9182,72.12,81,0,12.66
76,Ambilobe,MG,-13.2,49.05,65.25,77,28,4.47
77,Port Hardy,CA,50.6996,-127.4199,64.58,77,20,6.91
78,Upernavik,GL,72.7868,-56.1549,41.36,87,100,19.17
79,Voi,KE,-3.3945,38.563,65.98,78,20,8.68
80,Cape Coast,GH,5.1053,-1.2466,73.53,92,87,9.57
81,Hailey,US,43.5196,-114.3153,95.88,24,40,8.05
82,Avarua,CK,-21.2078,-159.775,77.05,65,40,11.5
83,Myrtle Beach,US,33.6891,-78.8867,89.35,77,0,19.57
84,Pisco,PE,-13.7,-76.2167,62.65,77,75,6.91
85,Trairi,BR,-3.2778,-39.2689,78.12,80,10,12.26
86,Karakol,KG,42.4907,78.3936,61.99,67,73,0.98
87,Bluff,NZ,-46.6,168.3333,37.8,70,38,4.61
88,São José da Coroa Grande,BR,-8.8978,-35.1478,74.19,78,6,6.82
89,Lebu,CL,-37.6167,-73.65,48.18,79,100,10.33
90,Salalah,OM,17.0151,54.0924,76.51,95,99,4.54
91,Barrow,US,71.2906,-156.7887,42.82,81,100,16.11
92,Tual,ID,-5.6667,132.75,79.92,80,100,16.2
93,Ponta do Sol,PT,32.6667,-17.1,72.72,95,25,4.85
94,Bambous Virieux,MU,-20.3428,57.7575,68.25,73,75,10.36
95,Cidreira,BR,-30.1811,-50.2056,55.85,85,100,17.85
96,Prado,BR,-17.3411,-39.2208,72.46,77,1,8.28
97,Shahrud,IR,36.4182,54.9763,67.84,78,13,9.53
98,Plaster Rock,CA,46.9065,-67.39,63.12,90,100,3.33
99,Yellowknife,CA,62.456,-114.3525,66.72,55,75,17.27
100,Charagua,BO,-19.8,-63.2167,56.77,57,11,5.06
101,Severo-Kuril'sk,RU,50.6789,156.125,55.85,98,100,16.62
102,Korla,CN,41.7597,86.1469,84.2,29,25,10.4
103,Tasiilaq,GL,65.6145,-37.6368,36.3,93,67,5.97
104,Mar del Plata,AR,-38.0023,-57.5575,51.1,83,0,5.75
105,Vao,NC,-22.6667,167.4833,68.09,61,0,17.96
106,Yeppoon,AU,-23.1333,150.7333,56.98,63,0,8.43
107,Tautira,PF,-17.7333,-149.15,72.93,83,100,13.44
108,New Norfolk,AU,-42.7826,147.0587,39.9,84,1,2.62
109,Bay Roberts,CA,47.5999,-53.2648,56.34,96,100,8.99
110,Qaanaaq,GL,77.484,-69.3632,38.48,58,0,2.62
111,Bilma,NE,18.6853,12.9164,94.48,29,15,10.22
112,Port Lincoln,AU,-34.7333,135.8667,53.35,75,96,25.79
113,Gaza,PS,31.5,34.4667,73.89,71,0,4.63
114,Steinbach am Taunus,DE,50.1667,8.5667,76.51,35,0,12.66
115,Borūjerd,IR,33.8973,48.7516,77.05,40,0,3.33
116,Cherskiy,RU,68.75,161.3,61.83,78,98,13.51
117,Mount Isa,AU,-20.7333,139.5,64.17,29,7,10.36
118,Antalaha,MG,-14.9003,50.2788,67.3,81,50,9.15
119,Umba,RU,66.6871,34.3429,52.86,85,83,6.67
120,Henties Bay,NA,-22.116,14.2845,53.8,92,3,6.96
121,Zima,RU,53.9202,102.0442,58.8,75,86,2.57
122,Fukuechō,JP,32.6881,128.8419,83.77,79,97,10.42
123,Amahai,ID,-3.3333,128.9167,76.06,91,100,5.7
124,Saint Paul Harbor,US,57.79,-152.4072,53.11,94,100,8.05
125,Carnarvon,AU,-24.8667,113.6333,56.17,67,65,15.28
126,Kruisfontein,ZA,-34.0033,24.7314,57.31,76,70,12.37
127,Omsukchan,RU,62.5333,155.8,65.77,47,100,7.47
128,Vardø,NO,70.3705,31.1107,48.18,93,75,0.0
129,Khatanga,RU,71.9667,102.5,55.4,73,99,9.31
130,Lüderitz,NA,-26.6481,15.1594,54.75,90,1,10.8
131,Paamiut,GL,61.994,-49.6678,42.39,88,100,12.17
132,Pinhão,BR,-25.6956,-51.6597,50.81,99,100,7.02
133,Bathsheba,BB,13.2167,-59.5167,84.81,79,75,17.27
134,Ransang,PH,8.9603,117.5828,78.98,77,76,3.51
135,Snezhnogorsk,RU,69.1933,33.2531,51.58,84,100,2.8
136,Hasaki,JP,35.7333,140.8333,86.4,84,96,21.92
137,Assiniboia,CA,49.6334,-105.9845,76.82,22,0,9.22
138,Pevek,RU,69.7008,170.3133,44.51,86,100,8.79
139,Esperance,AU,-33.8667,121.9,44.44,75,97,24.25
140,Okha,RU,53.5739,142.9478,62.85,78,30,6.24
141,Provideniya,RU,64.3833,-173.3,51.91,76,40,15.99
142,Grindavik,IS,63.8424,-22.4338,51.75,100,100,26.46
143,Muros,ES,42.7762,-9.0603,68.68,93,5,1.36
144,Paramonga,PE,-10.6667,-77.8333,63.32,79,11,7.99
145,Bredasdorp,ZA,-34.5322,20.0403,50.49,85,88,7.47
146,Castro,BR,-24.7911,-50.0119,56.93,95,100,8.01
147,Lata,PT,40.1629,-8.3327,62.73,93,1,2.66
148,Bilibino,RU,68.0546,166.4372,65.17,71,95,6.69
149,São João da Barra,BR,-21.6403,-41.0511,70.81,91,46,11.32
150,Klyavlino,RU,54.2649,52.0267,66.0,83,99,4.0
151,Aripuanã,BR,-9.1667,-60.6333,81.0,60,71,2.59
152,Cururupu,BR,-1.8283,-44.8683,75.67,86,7,4.79
153,Camacha,PT,33.0833,-16.3333,67.42,73,40,9.22
154,Felipe Carrillo Puerto,MX,19.5833,-88.05,85.82,63,86,5.95
155,Saint-Jérôme,CA,45.7804,-74.0036,65.43,79,100,2.3
156,Grand-Santi,GF,4.25,-54.3833,78.6,71,83,2.1
157,Pangnirtung,CA,66.1451,-65.7125,42.8,87,75,5.75
158,Bonthe,SL,7.5264,-12.505,75.83,90,79,8.25
159,Haldwani,IN,29.2167,79.5167,81.48,81,95,3.47
160,Kamina,CD,-8.7386,24.9906,64.26,34,0,2.95
161,Bosaso,SO,11.2842,49.1816,90.0,45,79,15.55
162,Bac Lieu,VN,9.285,105.7244,77.22,88,99,11.5
163,Wanxian,CN,30.8039,108.3897,81.68,79,95,3.27
164,Ancud,CL,-41.8697,-73.8203,46.22,83,100,3.15
165,Evanston,US,42.0411,-87.6901,79.56,63,0,8.05
166,Valencia,ES,39.3333,-0.8333,78.87,84,68,2.35
167,Srandakan,ID,-7.9386,110.2506,75.87,88,95,7.52
168,Dukat,RU,62.55,155.55,64.09,47,100,5.99
169,Blackwater,AU,-23.5833,148.8833,60.71,39,0,9.71
170,Diapaga,BF,12.0708,1.7889,74.71,93,26,4.68
171,Wajir,KE,1.7471,40.0573,74.37,63,98,18.72
172,Le Vauclin,MQ,14.5452,-60.8388,83.84,94,75,12.66
173,Bloomfield,US,40.8068,-74.1854,94.69,62,75,28.77
174,Airai,TL,-8.9266,125.4092,61.47,70,7,3.09
175,Abbeyleix,IE,52.8992,-7.3575,59.59,81,24,1.01
176,Poum,NC,-20.2333,164.0167,71.29,59,2,21.83
177,El Alto,PE,-4.2714,-81.2147,69.46,77,26,17.29
178,Port Alfred,ZA,-33.5906,26.891,65.79,65,95,9.82
179,Esso,RU,55.9333,158.7,53.24,96,100,7.29
180,Bara,NG,10.3744,10.7288,76.1,80,27,5.61
181,Paita,PE,-5.0892,-81.1144,65.3,80,22,16.06
182,Zyryanka,RU,65.75,150.85,75.07,49,7,9.26
183,Iwanai,JP,42.9744,140.5089,72.01,90,100,3.8
184,Bykovo,RU,55.6361,38.0803,61.16,94,75,4.47
185,Mount Gambier,AU,-37.8333,140.7667,47.1,63,100,10.65
186,Dawei,MM,14.0833,98.2,75.7,93,100,4.81
187,Aklavik,CA,68.2191,-135.0107,56.95,40,100,23.8
188,Tiksi,RU,71.6872,128.8694,57.47,72,66,14.76
189,Kangaatsiaq,GL,68.3065,-53.4641,38.89,90,100,9.28
190,Katsuura,JP,35.1333,140.3,82.81,84,89,19.6
191,Zhangye,CN,38.9342,100.4517,71.55,73,38,0.98
192,Igrim,RU,63.1906,64.4162,56.95,63,55,3.6
193,Thunder Bay,CA,48.4001,-89.3168,89.51,29,20,16.11
194,Iqaluit,CA,63.7506,-68.5145,53.33,62,75,2.3
195,Usinsk,RU,65.9939,57.5281,44.26,79,29,2.13
196,General Roca,AR,-39.0333,-67.5833,48.61,54,100,9.51
197,Mazagão,BR,-0.115,-51.2894,86.05,78,44,6.69
198,Port Elizabeth,ZA,-33.918,25.5701,60.31,69,81,1.01
199,Abalak,RU,58.1286,68.5944,62.2,78,6,5.3
200,Ilebo,CD,-4.3167,20.5833,74.25,33,10,1.03
201,Aden,YE,12.7794,45.0367,84.31,77,86,22.68
202,Payo,ID,-3.7508,103.6372,71.49,90,9,1.83
203,Sidi Ali,DZ,36.0998,0.4206,85.5,43,44,9.51
204,Jammalamadugu,IN,14.8333,78.4,78.6,67,100,18.99
205,Talnakh,RU,69.4865,88.3972,49.21,85,72,4.99
206,Saint-Philippe,RE,-21.3585,55.7679,67.59,77,66,15.48
207,Saint George,US,37.1041,-113.5841,94.42,31,0,18.41
208,Alta Floresta,BR,-9.8756,-56.0861,85.95,40,67,7.2
209,Sur,OM,22.5667,59.5289,87.57,62,97,7.52
210,Husavik,IS,66.0449,-17.3389,54.03,84,89,5.06
211,Tayshet,RU,55.9342,98.0044,54.97,88,23,0.54
212,Santa Cruz de la Sierra,BO,-17.8,-63.1667,66.25,52,20,16.11
213,Glyadyanskoye,RU,54.9075,65.0883,61.7,79,51,6.53
214,Songea,TZ,-10.6833,35.65,60.48,60,89,2.37
215,Darhan,MN,49.4867,105.9228,62.56,81,100,1.1
216,High Rock,BS,26.6208,-78.2833,87.82,74,4,14.16
217,Hithadhoo,MV,-0.6,73.0833,81.21,77,32,5.84
218,Inírida,CO,3.8653,-67.9239,75.47,94,98,0.6
219,Iskateley,RU,67.6803,53.1512,46.11,85,49,6.49
220,Jiexiu,CN,37.0244,111.9125,66.65,95,100,3.47
221,Altay,CN,47.8667,88.1167,65.03,46,7,6.67
222,Alice Springs,AU,-23.7,133.8833,61.21,46,84,9.22
223,Santa Engracia,ES,41.9406,-1.3245,81.99,64,60,5.53
224,Ulaangom,MN,49.9811,92.0667,61.02,70,7,2.15
225,East London,ZA,-33.0153,27.9116,64.15,61,61,6.11
226,Bandarbeyla,SO,9.4942,50.8122,78.19,74,95,28.79
227,Gilgit,PK,35.9221,74.3087,80.26,60,4,3.58
228,Geraldton,AU,-28.7667,114.6,48.61,100,100,5.75
229,Ushtobe,KZ,45.2514,77.9838,70.09,68,94,5.14
230,Guerrero Negro,MX,27.9769,-114.0611,83.73,52,34,15.43
231,Flinders,AU,-34.5833,150.8552,57.38,76,100,7.0
232,Zhongshu,CN,24.5167,103.7667,59.92,95,0,4.74
233,Touros,BR,-5.1989,-35.4608,75.85,78,24,14.81
234,Zorritos,PE,-3.6805,-80.6782,73.69,78,23,10.09
235,Roebourne,AU,-20.7833,117.1333,60.96,40,25,10.85
236,Thompson,CA,55.7435,-97.8558,59.16,82,75,13.8
237,Kalabo,ZM,-14.97,22.6814,58.06,25,0,5.26
238,Gamba,GA,-2.65,10.0,69.49,88,9,6.4
239,Bazaliia,UA,49.7127,26.4733,56.55,86,100,4.63
240,Assiut,EG,27.181,31.1837,87.98,32,0,10.0
241,Iralaya,HN,15.0,-83.2333,79.3,87,100,10.07
242,Bridlington,GB,54.0831,-0.1919,64.15,82,74,8.39
243,Sola,VU,-13.8833,167.55,80.22,72,6,2.04
244,Teya,RU,60.3778,92.6267,59.41,99,100,1.43
245,Pāli,IN,25.7667,73.3333,85.91,70,92,6.78
246,Brae,GB,60.3964,-1.353,57.58,89,97,23.82
247,Bismarck,US,46.8083,-100.7837,89.44,39,0,14.97
248,Grahamstown,ZA,-33.3042,26.5328,57.61,61,97,6.98
249,Alpena,US,45.0617,-83.4327,71.92,58,0,9.22
250,Jiangyou,CN,31.7667,104.7167,76.39,92,100,2.98
251,Gumdag,TM,39.2061,54.5906,86.68,34,54,7.65
252,Hastings,GB,50.8552,0.5729,65.32,89,35,14.41
253,Ludhiana,IN,30.9,75.85,87.03,90,28,1.77
254,Udachny,RU,66.4167,112.4,59.45,62,100,4.94
255,Dharmadam,IN,11.7833,75.4333,77.99,86,98,12.62
256,Yurginskoye,RU,56.8189,67.3921,62.55,82,37,5.84
257,Horodnya,UA,51.8909,31.5974,59.54,77,100,7.0
258,Nishihara,JP,26.1842,127.7558,83.48,87,40,5.75
259,Sept-Îles,CA,50.2001,-66.3821,66.72,56,20,5.75
260,Loughrea,IE,53.1969,-8.5669,53.71,83,65,3.89
261,Hwange,ZW,-18.3693,26.5019,64.2,32,0,3.56
262,Kavaratti,IN,10.5669,72.642,80.53,82,86,20.09
263,Lucapa,AO,-8.4192,20.7447,67.98,27,0,2.04
264,Alofi,NU,-19.0595,-169.9187,76.89,83,40,6.91
265,Wanaka,NZ,-44.7,169.15,38.1,68,18,1.99
266,Kaitangata,NZ,-46.2817,169.8464,39.15,61,6,7.11
267,Valparaíso,CL,-33.0393,-71.6273,66.43,48,0,5.75
268,Victor Harbor,AU,-35.5667,138.6167,50.68,85,100,14.85
269,Imbituba,BR,-28.24,-48.6703,64.85,99,100,18.07
270,Matagami,CA,49.7502,-77.6328,73.51,43,0,14.97
271,Bobrovka,RU,54.047,61.7455,60.12,78,0,4.03
272,Bengkulu,ID,-3.8004,102.2655,74.3,91,38,3.98
273,Montepuez,MZ,-13.1256,38.9997,62.02,88,0,2.84
274,Quatre Cocos,MU,-20.2078,57.7625,68.11,69,87,19.44
275,Kalmunai,LK,7.4167,81.8167,77.77,66,100,3.2
276,Fortuna,US,40.5982,-124.1573,73.09,65,40,12.66
277,Havre-St-Pierre,CA,50.2334,-63.5986,66.56,55,0,5.75
278,Porto Santo,PT,33.072,-16.3415,70.18,73,40,9.22
279,Sampit,ID,-2.5333,112.95,73.89,98,73,1.57
280,Biak,ID,-0.9131,122.8766,75.42,90,88,6.55
281,Amapá,BR,1.0,-52.0,75.56,81,54,3.0
282,Baker City,US,44.7749,-117.8344,94.71,21,0,13.8
283,Puerto Madryn,AR,-42.7692,-65.0385,53.42,54,38,11.56
284,Lagoa,PT,39.05,-27.9833,71.87,81,4,8.32
285,Fairbanks,US,64.8378,-147.7164,52.21,66,75,11.5
286,Leningradskiy,RU,69.3833,178.4167,53.4,52,97,6.4
287,College,US,64.8569,-147.8028,52.2,67,100,11.5
288,Bar Harbor,US,44.3876,-68.2039,68.38,82,100,6.91
289,Ghanzi,BW,-21.5667,21.7833,57.22,14,0,7.78
290,Kirishi,RU,59.4471,32.0205,51.22,87,46,3.02
291,Karratha,AU,-20.7377,116.8463,60.78,41,14,9.86
292,Galesong,ID,-5.3166,119.3661,73.42,79,99,5.93
293,Mondlo,ZA,-27.983,30.7177,49.28,88,0,4.25
294,Nantucket,US,41.2835,-70.0995,82.45,87,40,12.66
295,Baturaja,ID,-4.1333,104.1667,71.69,97,29,2.01
296,Coquimbo,CL,-29.9533,-71.3436,58.73,72,0,6.91
297,Mokrous,RU,51.2333,47.5167,71.02,58,19,7.05
298,Chokurdakh,RU,70.6333,147.9167,59.52,62,0,8.32
299,Soligalich,RU,59.0778,42.2864,57.43,77,100,3.94
300,Ṭikāpur,NP,28.5,81.1333,85.24,70,100,1.99
301,Roald,NO,62.5833,6.1333,63.75,100,100,19.57
302,Kirakira,SB,-10.4544,161.9205,82.58,75,96,3.09
303,Tezu,IN,27.9167,96.1667,76.44,98,100,2.1
304,Murray Bridge,AU,-35.1167,139.2667,52.12,62,100,13.02
305,Novy Urengoy,RU,66.0833,76.6333,52.72,77,21,8.12
306,Pontes e Lacerda,BR,-15.2261,-59.3353,60.33,90,100,7.63
307,Kahului,US,20.8947,-156.47,87.96,62,40,25.32
308,Yulara,AU,-25.2406,130.9889,56.43,82,100,10.29
309,Inongo,CD,-1.95,18.2667,73.27,62,42,6.8
310,San Jose,US,37.3394,-121.895,87.85,47,20,16.11
311,Chaman,PK,30.9236,66.4512,83.71,46,97,6.08
312,Marihatag,PH,8.7936,126.2969,78.17,85,100,3.6
313,Turukhansk,RU,65.8167,87.9833,53.76,80,21,12.17
314,Kolyvan',RU,55.3053,82.7391,56.82,91,0,7.58
315,Uvira,CD,-3.4067,29.1458,73.53,55,15,1.45
316,Namatanai,PG,-3.6667,152.4333,82.18,74,100,3.44
317,Ørnes,NO,66.8689,13.7078,54.1,90,100,9.08
318,Safi,MA,32.2994,-9.2372,69.03,85,0,10.71
319,Flin Flon,CA,54.7682,-101.865,67.84,49,75,14.97
320,Manggar,ID,-2.8833,108.2667,80.83,80,67,9.82
321,Saint-Joseph,RE,-21.3667,55.6167,66.58,76,35,16.53
322,Lazarev,RU,52.225,141.5131,62.13,77,78,7.96
323,El Viejo,NI,12.6633,-87.1672,89.82,62,20,4.61
324,Petropavlovsk-Kamchatskiy,RU,53.0452,158.6483,54.19,100,100,6.71
325,Balaipungut,ID,1.05,101.2833,73.53,98,87,1.7
326,Klaksvík,FO,62.2266,-6.589,54.52,96,100,22.5
327,Bubaque,GW,11.2833,-15.8333,80.04,84,99,11.99
328,Condado,CU,21.8767,-79.8403,85.78,73,84,6.89
329,Sisimiut,GL,66.9395,-53.6735,40.23,92,100,6.15
330,Faanui,PF,-16.4833,-151.75,75.74,72,91,7.99
331,San Quintín,MX,30.4833,-115.95,77.85,64,16,11.7
332,Jumla,NP,29.2747,82.1838,61.41,96,74,0.92
333,Fergus Falls,US,46.283,-96.0776,87.78,51,0,10.36
334,Hokitika,NZ,-42.7167,170.9667,46.13,48,1,1.72
335,Kousséri,CM,12.0769,15.0306,81.75,64,78,5.93
336,Mitsamiouli,KM,-11.3847,43.2844,76.06,74,47,5.35
337,Hervey Bay,AU,-25.2986,152.8535,60.1,70,2,14.7
338,Palu,ID,-0.8917,119.8707,75.96,91,86,2.44
339,Senanga,ZM,-16.1167,23.2667,58.57,28,0,4.29
340,Huesca,ES,42.1362,-0.4087,77.68,47,0,4.61
341,Pouébo,NC,-20.4,164.5667,70.74,50,3,10.04
342,Wanning,CN,18.8003,110.3967,78.53,87,100,6.17
343,Capreol,CA,46.706,-80.9225,73.87,49,20,9.22
344,Christchurch,NZ,-43.5333,172.6333,47.41,66,8,2.3
345,Anamur,TR,36.0751,32.8369,80.1,82,38,9.44
346,Ratnagiri,IN,16.9833,73.3,79.52,82,100,17.38
347,San Cristobal,VE,7.7669,-72.225,80.78,75,64,4.09
348,Quebo,GW,11.3333,-14.9333,76.33,95,100,4.32
349,Boddam,GB,57.4667,-1.7833,62.98,86,79,1.59
350,Djambala,CG,-2.5447,14.7533,76.48,38,19,2.08
351,Kempele,FI,64.9131,25.5034,56.12,82,0,5.75
352,Lopătari,RO,45.4833,26.5833,66.11,76,39,9.71
353,Richards Bay,ZA,-28.783,32.0377,64.08,86,8,9.78
354,Pedasí,PA,7.5333,-80.0333,83.07,78,83,4.07
355,Council Bluffs,US,41.2619,-95.8608,93.49,41,0,6.91
356,Hohhot,CN,40.8106,111.6522,61.09,88,0,6.71
357,Pokosnoye,RU,55.5258,101.0536,57.7,83,92,2.06
358,Corn Island,NI,12.1694,-83.0418,81.73,82,100,12.97
359,Russell,US,32.3502,-85.1999,89.01,62,40,4.61
360,Ürümqi,CN,43.801,87.6005,77.95,44,0,2.24
361,Shimoda,JP,34.6667,138.95,89.1,84,75,12.33
362,Huicheng,CN,23.0385,116.2899,79.99,87,95,14.81
363,Seminole,US,28.7086,-81.2081,88.2,76,93,1.99
364,Lavrentiya,RU,65.5833,-171.0,50.85,56,81,11.3
365,Mnogovershinnyy,RU,53.9353,139.9242,57.18,81,72,1.52
366,Faya,SA,18.3851,42.4509,66.31,76,99,5.99
367,Concordia,AR,-31.393,-58.0209,53.78,71,85,5.99
368,Puquio,PE,-14.7,-74.1333,53.91,41,65,5.59
369,Buraidah,SA,26.326,43.975,97.25,17,2,8.66
370,Riyadh,SA,24.6877,46.7219,102.34,15,63,12.15
371,Vélingara,SN,13.15,-14.1167,77.74,92,85,7.25
372,Kutum,SD,14.2,24.6667,74.35,65,100,5.01
373,Monrovia,LR,6.3005,-10.7969,76.77,87,93,11.43
374,Luganville,VU,-15.5333,167.1667,80.71,78,24,6.35
375,Murphy,US,33.0151,-96.6131,89.06,65,0,8.05
376,Barkhan,PK,29.8977,69.5256,81.18,66,5,1.16
377,Athens,GR,37.9795,23.7162,84.16,35,0,3.44
378,Avera,US,33.194,-82.5271,90.91,56,48,6.11
379,Monteagudo,BO,-19.8167,-63.9833,50.27,72,67,2.86
380,Tsubata,JP,36.6667,136.7333,90.21,65,99,6.51
381,Vrangel',RU,42.7297,133.0839,69.64,85,0,4.03
382,Glenluce,GB,54.8798,-4.8084,58.93,87,98,4.5
383,Monforte de Lemos,ES,42.5216,-7.5142,65.68,85,0,1.25
384,Shanhecun,CN,44.7,127.2,66.02,86,0,16.44
385,Krasnosel'kup,RU,65.7,82.4667,52.23,78,29,7.76
386,Posse,BR,-14.0931,-46.3694,78.8,27,80,4.12
387,El Dorado,US,38.7666,-120.5177,86.63,39,63,11.14
388,Tabas,IR,33.5959,56.9244,87.49,20,0,2.57
389,Paraipaba,BR,-3.4394,-39.1483,77.07,80,8,9.98
390,Arraial do Cabo,BR,-22.9661,-42.0278,70.52,91,99,13.2
391,Gigmoto,PH,13.7796,124.39,80.69,81,100,2.06
392,Linjiang,CN,41.8069,126.9078,63.03,71,0,2.15
393,Teknāf,BD,20.8624,92.3058,77.9,92,100,13.42
394,Nome,US,64.5011,-165.4064,55.17,76,20,17.27
395,Aquiraz,BR,-3.9014,-38.3911,80.19,85,19,10.54
396,Tumut,AU,-35.3,148.2167,47.28,74,9,1.05
397,Bāgli,IN,22.65,76.35,73.8,96,100,8.39
398,Coyhaique,CL,-45.5752,-72.0662,46.35,66,75,3.44
399,Kjøllefjord,NO,70.9457,27.3465,53.65,88,99,12.66
400,Kampot,KH,10.6167,104.1833,75.25,86,93,8.63
401,Rawson,AR,-43.3002,-65.1023,51.21,46,44,3.71
402,Ossora,RU,59.2353,163.0719,58.19,85,100,17.11
403,Storforshei,NO,66.4043,14.5233,51.66,100,100,3.44
404,Bogatynia,PL,50.9075,14.9563,65.01,79,54,2.8
405,Bourail,NC,-21.5667,165.4833,68.45,62,2,13.0
406,Paulo Ramos,BR,-4.2167,-45.1833,80.19,46,14,2.82
407,Gaoual,GN,11.75,-13.2,75.96,94,97,3.51
408,Acapulco de Juárez,MX,16.8634,-99.8901,84.74,70,85,8.59
409,Chātakonda,IN,17.55,80.65,74.53,92,100,7.96
410,Hambantota,LK,6.1241,81.1185,78.13,80,90,16.8
411,Dzhebariki-Khaya,RU,62.2167,135.8,62.26,83,100,1.48
412,Great Falls,US,47.5002,-111.3008,88.66,24,0,8.05
413,Sobolevo,RU,54.4299,31.8996,60.26,70,100,5.73
414,Mayor Pablo Lagerenza,PY,-19.9309,-60.7718,61.65,41,27,5.53
415,Havelock,US,34.8791,-76.9013,89.56,73,20,13.8
416,Vegachí,CO,6.7614,-74.7947,72.39,87,90,1.99
417,Shelburne,CA,44.0787,-80.2041,69.76,80,54,6.73
418,Muroto-misakicho,JP,33.2833,134.15,83.66,78,99,5.93
419,Niimi,JP,34.9833,133.4667,83.53,78,90,6.87
420,Neuruppin,DE,52.9282,12.8031,62.1,76,32,6.26
421,Balgazyn,RU,51.0,95.2,56.55,98,100,1.9
422,Porto-Novo,BJ,6.4965,2.6036,76.82,84,46,8.46
423,Simga,IN,21.6333,81.7,77.2,92,100,6.2
424,Bundaberg,AU,-24.85,152.35,60.22,71,0,5.01
425,Quzhou,CN,28.9594,118.8686,81.39,78,100,2.77
426,Kieta,PG,-6.2167,155.6333,83.88,68,100,1.95
427,Micheweni,TZ,-4.9667,39.8333,73.31,86,48,13.18
428,Caucayá,CO,-0.1934,-74.7819,74.08,97,100,2.62
429,Pedersore,FI,63.65,22.6833,59.9,81,62,12.3
430,Puri,IN,19.8,85.85,79.32,83,100,23.82
431,Elizabeth City,US,36.2946,-76.2511,94.01,63,20,9.22
432,Kamloops,CA,50.6665,-120.3192,96.75,25,75,8.99
433,Aloleng,PH,16.1307,119.7824,79.3,85,100,12.33
434,Urengoy,RU,65.9667,78.3667,51.78,83,15,7.63
435,Alcúdia,ES,39.8532,3.1214,82.26,57,0,5.68
436,Arkhangelsk,RU,64.5401,40.5433,42.91,100,20,2.24
437,Celano,IT,42.0855,13.5398,60.01,85,100,2.44
438,Hope,US,33.6671,-93.5916,78.85,85,100,5.35
439,Prince Rupert,CA,54.3161,-130.3201,68.09,71,0,12.66
440,Atocha,BO,-20.9333,-66.2333,40.84,10,0,4.41
441,Sorong,ID,-0.8833,131.25,77.22,86,100,3.29
442,Les Cayes,HT,18.2,-73.75,81.84,79,27,5.21
443,Kavieng,PG,-2.5744,150.7967,81.7,74,100,4.21
444,Igboho,NG,8.8333,3.75,71.02,95,34,6.38
445,Egvekinot,RU,66.3167,-179.1667,50.74,54,100,6.87
446,Pontianak,ID,-0.0333,109.3333,76.98,94,20,2.3
447,Ketchikan,US,55.3422,-131.6461,64.38,47,10,7.38
448,Chase,CA,50.8165,-119.6857,97.14,23,63,1.05
449,Codrington,AU,-38.2667,141.9667,45.43,74,100,8.57
450,Pechenga,RU,69.5259,31.1703,52.48,85,91,1.45
451,Vsetín,CZ,49.3387,17.9962,61.32,74,17,4.94
452,Karagach,RU,43.8053,43.775,66.31,60,0,2.84
453,Ergani,TR,38.2653,39.7621,76.68,53,0,2.77
454,Røros,NO,62.5747,11.3842,51.64,93,75,5.75
455,Abapó,BO,-18.8333,-63.4667,51.82,70,49,2.82
456,Morón,AR,-34.6534,-58.6198,53.96,74,47,5.7
457,Hamilton,US,39.1834,-84.5333,84.88,77,75,10.36
458,Solnechnyy,RU,50.7214,136.6319,61.16,75,98,5.1
459,Mokhsogollokh,RU,61.4681,128.9203,61.14,69,92,4.74
460,Mujiayingzi,CN,42.1167,118.7833,71.28,62,0,7.0
461,Camaná,PE,-16.6228,-72.7111,61.86,80,53,4.56
462,Magadan,RU,59.5667,150.8,56.53,91,100,13.85
463,Santa Lucía,ES,27.9117,-15.5407,65.52,73,20,21.85
464,Manzhouli,CN,49.6,117.4333,57.6,57,9,13.87
465,Iracoubo,GF,5.4802,-53.2011,80.35,83,80,13.09
466,Khovd,MN,48.0056,91.6419,61.74,49,0,5.53
467,Ponta Delgada,PT,37.7333,-25.6667,73.51,78,20,4.61
468,Quang Ngai,VN,15.1167,108.8,75.92,85,100,4.43
469,Santiago del Estero,AR,-27.7951,-64.2615,52.65,53,2,8.08
470,Kenai,US,60.5544,-151.2583,55.15,84,100,14.97
471,Labuhan,ID,-6.8844,112.2051,75.63,88,19,8.5
472,Sol'-Iletsk,RU,51.1631,54.9918,70.59,60,34,6.71
473,Guéret,FR,46.1667,1.8667,62.13,45,24,2.66
474,Arman',RU,59.7,150.1667,57.02,91,100,8.99
475,Torbat-e Jām,IR,35.244,60.6225,74.8,27,0,13.71
476,Verkhnyaya Inta,RU,65.9811,60.3094,45.01,79,73,3.29
477,Muskegon,US,43.3,-86.1334,78.94,63,40,11.5
478,Khorixas,NA,-20.3667,14.9667,63.16,34,0,2.08
479,Koster,ZA,-25.863,26.8976,51.17,34,0,1.61
480,Road Town,VG,18.4167,-64.6167,82.44,83,40,9.22
481,Agirish,RU,61.9247,63.0231,58.53,55,52,4.56
482,Westport,US,41.1415,-73.3579,92.75,69,20,5.75
483,Severnyy,RU,50.677,36.5532,68.04,88,0,8.95
484,Santander Jiménez,MX,24.2167,-98.4667,93.02,41,32,21.52
485,Kedrovyy,RU,56.1667,91.8167,48.87,80,5,0.74
486,Taiyuan,CN,37.8694,112.5603,62.46,94,40,6.71
487,Vostok,RU,46.4856,135.8833,65.59,61,26,7.54
488,Kattivākkam,IN,13.2167,80.3167,84.07,69,100,19.53
489,Ordzhonīkīdze,KZ,52.4411,61.7408,64.51,63,36,6.78
490,Goderich,CA,43.7501,-81.7165,69.91,64,18,12.66
491,Bowen,AU,-20.0167,148.2333,63.37,64,5,11.12
492,Ixtapa,MX,20.7,-105.2,87.22,68,74,5.01
493,Mareeba,AU,-17.0,145.4333,66.49,76,1,5.55
494,Novopistsovo,RU,57.3218,41.8531,54.61,97,14,6.13
495,Sitka,US,57.0531,-135.33,62.11,64,79,8.19
496,Weatherford,US,32.7593,-97.7972,85.66,31,91,2.06
497,Vestmannaeyjar,IS,63.4427,-20.2734,52.52,91,100,21.63
498,San Rafael,AR,-34.6177,-68.3301,50.16,42,99,13.33
499,Batagay-Alyta,RU,67.8006,130.4114,59.7,66,51,3.36
500,Basco,PH,20.4487,121.9702,84.04,73,100,8.03
501,Caravelas,BR,-17.7125,-39.2481,70.97,80,0,5.86
502,Isangel,VU,-19.55,169.2667,69.91,94,100,6.91
503,São Gabriel da Cachoeira,BR,-0.1303,-67.0892,79.47,76,64,2.91
504,Tuatapere,NZ,-46.1333,167.6833,44.42,67,52,3.67
505,Algiers,DZ,36.7525,3.042,73.22,78,20,3.44
506,Mandalgovi,MN,45.7625,106.2708,63.32,64,99,14.81
507,Maicao,CO,11.3832,-72.2432,84.83,66,49,17.9
508,Pital,CO,2.2665,-75.8044,72.63,75,100,7.92
509,Boa Vista,BR,2.8197,-60.6733,93.18,38,20,6.91
510,Gimli,CA,50.6336,-96.9907,73.49,47,0,15.21
511,Yamada,JP,39.4667,141.95,71.91,96,72,3.6
512,Amboasary,MG,-25.0333,46.3833,65.57,85,9,10.02
513,Oriximiná,BR,-1.7656,-55.8661,84.49,45,51,2.44
514,Shiraz,IR,29.6036,52.5388,80.04,28,20,0.0
515,Zaterechnyy,RU,44.7931,45.2097,73.47,38,0,5.77
516,Chumikan,RU,54.7183,135.315,54.91,93,100,3.58
517,Crişan,RO,44.9667,29.4667,76.96,51,86,10.45
518,Constitución,CL,-35.3333,-72.4167,51.91,73,88,7.99
519,Ankang,CN,32.68,109.0172,78.17,88,93,2.08
520,Mahon,ES,39.8885,4.2658,77.56,73,0,3.44
521,Lashio,MM,22.9333,97.75,68.86,99,100,1.03
522,Dornoch,GB,57.8805,-4.0288,62.65,82,23,7.4
523,Namwala,ZM,-15.7504,26.4384,60.17,35,0,3.98
524,Tandaltī,SD,13.0167,31.8667,80.53,69,93,7.2
525,Potsdam,DE,52.3989,13.0657,69.19,53,72,6.31
526,Laas,IT,46.6166,10.7002,68.88,82,4,1.54
527,Te Anau,NZ,-45.4167,167.7167,36.48,73,21,0.92
528,Vila Velha,BR,-20.3297,-40.2925,73.35,92,75,4.61
529,Ulladulla,AU,-35.35,150.4667,51.39,73,38,5.1
530,Hof,DE,50.3167,11.9167,63.5,46,75,2.3
531,São Felipe,BR,-14.8167,-41.3833,72.19,43,28,4.94
532,Wonosobo,ID,-7.36,109.9025,66.24,98,94,2.62
533,Macas,EC,-2.3167,-78.1167,76.75,64,40,5.75
534,Guánica,PR,17.9716,-66.908,88.21,71,76,8.66
535,Mbulu,TZ,-3.85,35.5333,50.14,87,62,9.31
536,Naryan-Mar,RU,67.6713,53.087,46.35,85,50,6.51
537,Sohag,EG,26.557,31.6948,88.09,30,5,11.1
538,San Patricio,US,28.017,-97.5169,96.19,45,51,14.67
539,Hanzhong,CN,33.0728,107.0303,76.19,93,86,1.5
540,Aksu,CN,41.1231,80.2644,77.09,50,88,11.77
541,Yuci,CN,37.6803,112.7319,62.35,94,40,6.71
542,Penápolis,BR,-21.4197,-50.0775,60.84,91,100,18.1
543,Eyl,SO,7.9803,49.8164,78.62,72,99,24.56
544,Dunedin,NZ,-45.8742,170.5036,44.8,55,3,5.99
545,Fort Nelson,CA,58.8053,-122.7002,74.79,38,20,5.75
546,Bollnäs,SE,61.3482,16.3946,59.58,73,98,6.38
547,Āsosa,ET,10.0667,34.5333,60.91,95,100,0.98
548,Chicama,PE,-7.8447,-79.1469,61.34,73,8,7.85
549,Manturovo,RU,58.3353,44.7619,57.11,97,100,5.88
550,Moroni,KM,-11.7022,43.2551,74.88,72,49,3.69
551,Wencheng,CN,33.0559,113.7978,70.3,91,97,5.53
552,Mīzan Teferī,ET,6.9833,35.5833,61.61,98,100,1.34
553,Beyneu,KZ,45.3167,55.2,78.89,35,0,5.75
554,Tutóia,BR,-2.7619,-42.2744,79.38,84,16,13.56
555,Hollins,US,37.3413,-79.9431,88.11,75,100,18.41
556,Yumen,CN,40.2833,97.2,70.68,70,20,5.82
557,Zhezkazgan,KZ,47.8043,67.7144,63.3,62,22,9.17
558,Presidencia Roque Sáenz Peña,AR,-26.7852,-60.4388,52.16,72,70,7.52
559,Salinópolis,BR,-0.6136,-47.3561,79.36,82,3,11.52
560,Tegul'det,RU,57.3064,88.1667,54.5,95,49,3.67
561,Banda Aceh,ID,5.5577,95.3222,78.1,83,85,11.7
